{
  "londorf": [
    {
      "id":"1",
      "title":"Dr. med. Thomas Lex",
      "address":"Wallstraße 19",
      "postal":"35466",
      "location":"Londorf",
      "phone":"(06407) 76 77",
      "geo": [50.6763415, 8.8614232],
      "openhours":["08:00 - 11:00", "08:00 - 11:00 & 18:00 - 19:00", "08:00 - 11:00", "08:00 - 11:00 & 18:00 - 19:00", "08:00 - 11:00"],
      "languages":["uk", "ru"],
      "type": "general"
    },
    {
      "id":"2",
      "title":"Dr. med. Annabell Kirschner",
      "address":"Wallstraße 19",
      "postal":"35466",
      "location":"Londorf",
      "phone":"(06407) 905 99 66",
      "geo": [50.6763415, 8.8614232],
      "openhours":["08:00 - 13:30", "08:00 - 13:30", "13:30 - 19:00", "08:00 - 12:30 & 13:30 - 19:00", "10:00 - 12:00"],
      "languages":["uk"],
      "type": "dentist"
    },
    {
      "id":"3",
      "title":"Dr. med. Klaus Fischer",
      "address":"Bahnhofstraße 1",
      "postal":"35466",
      "location":"Londorf",
      "phone":"(06407) 64 44",
      "geo": [ 50.675497, 8.8641266],
      "openhours":["", "", "", "", ""],
      "languages":["uk"],
      "type": "dentist"
    }
  ],
  "rüddingshausen": [
    {
      "id":"4",
      "title":"Dr. med. Thomas Lex",
      "address":"Hundsgasse 11",
      "postal":"35466",
      "location":"Rüddingshausen",
      "phone":"(06407) 75 56",
      "geo": [50.7507624, 9.265958],
      "openhours":["18:00 - 19:00", "", "18.00 - 19.00", "", ""],
      "languages":["uk"],
      "type": "general"
    },
    {
      "id":"5",
      "title":"Dr. med. Julia de Boor",
      "address":"Hundsgasse 11",
      "postal":"35466",
      "location":"Rüddingshausen",
      "phone":"(06407) 75 56",
      "geo": [50.7507624, 9.265958],
      "openhours":["08:00 - 09:00", "", "", "17:00 - 18:00", "08:00 - 09:00"],
      "languages":["uk"],
      "type": "general"
    }
  ],
  "geilshausen": [
    {
      "id":"6",
      "title":"Ärztehaus Rabenau",
      "address":"Weidenstraße 19",
      "postal":"35466",
      "location":"Geilshausen",
      "phone":"(06407) 75 75",
      "geo": [50.6637415, 8.8614232],
      "openhours":["08:00 - 12:00 & 14:00 - 19:00", "08:00 - 12:00 & 14:00 - 19:00", "08:00 - 12:00", "08:00 - 12:00 & 14:00 - 19:00", "08:00 - 12:00 & 14:00 - 19:00"],
      "languages":["uk"],
      "type": "general"
    }
  ],
  "allendorf lumda": [
    {
      "id":"7",
      "title": "",
      "address":"",
      "postal":"",
      "location":"Allendorf Lumda",
      "phone":"",
      "geo": [],
      "openhours":["08:00 - 12:00 & 14:00 - 19:00", "08:00 - 12:00 & 14:00 - 19:00", "08:00 - 12:00", "08:00 - 12:00 & 14:00 - 19:00", "08:00 - 12:00 & 14:00 - 19:00"],
      "languages":["uk"],
      "type": "general"
    }
  ]
}